sizeHeader,id,family,sizeData,size,dataCheckSum,headerCheckSum,version,offsetOfData,flags.posixTime,timeStamp,microSeconds,timestampPython,isValid,serialNumber,operationMode,ahrsData.roll,ahrsData.pitch,ahrsData.heading,ahrsData.quaternionW,ahrsData.quaternionX,ahrsData.quaternionY,ahrsData.quaternionZ,ahrsData.rotationMatrix_0,ahrsData.rotationMatrix_1,ahrsData.rotationMatrix_2,ahrsData.rotationMatrix_3,ahrsData.rotationMatrix_4,ahrsData.rotationMatrix_5,ahrsData.rotationMatrix_6,ahrsData.rotationMatrix_7,ahrsData.rotationMatrix_8,declination,depth,fomAhrs,fomFc1,fomIns,statusIns.latLonIsValid,courseOverGround,temperature,pressure,altitude,latitude,longitude,positionFrameX,positionFrameY,positionFrameZ,velocityNedX,velocityNedY,velocityNedZ,velocityNucleusX,velocityNucleusY,velocityNucleusZ,speedOverGround,turnRateX,turnRateY,turnRateZ,status.isValid,status.hasChecksumError,status.hasDataPathOverrun,status.hasFlashUpdateFailure,status.hasSpiComError,status.hasLowVoltage,status.hasSensorFailure,status.hasMemoryFailure,status.hasGyro1Failure,status.hasGyro2Failure,status.hasAccelerometerFailure,accelerometer.x,accelerometer.y,accelerometer.z,gyro.x,gyro.y,gyro.z,status.isCompensatedForHardIron,status.dvlActive,status.dvlAcousticsActive,status.dvlTransmitterActive,magnetometer.x,magnetometer.y,magnetometer.z,status.beam1VelocityValid,status.beam2VelocityValid,status.beam3VelocityValid,status.beam1DistanceValid,status.beam2DistanceValid,status.beam3DistanceValid,status.beam1FomValid,status.beam2FomValid,status.beam3FomValid,status.xVelocityValid,status.yVelocityValid,status.zVelocityValid,status.xFomValid,status.yFomValid,status.zFomValid,soundSpeed,velocityBeam1,velocityBeam2,velocityBeam3,distanceBeam1,distanceBeam2,distanceBeam3,fomBeam1,fomBeam2,fomBeam3,dtBeam1,dtBeam2,dtBeam3,timeVelBeam1,timeVelBeam2,timeVelBeam3,velocityX,velocityY,velocityZ,fomX,fomY,fomZ,dtXYZ,timeVelXYZ,status.altimeterDistanceValid,status.altimeterQualityValid,status.pressureValid,status.temperatureValid,altimeterDistance,altimeterQuality,fast_pressure,status.pointsUsedInEstimation,hardIron.x,hardIron.y,hardIron.z,sAxis_0,sAxis_1,sAxis_2,sAxis_3,sAxis_4,sAxis_5,sAxis_6,sAxis_7,sAxis_8,newPoint.x,newPoint.y,newPoint.z,fomFieldCalibration,coverage,string
10,160,32,1430,1440,21486,14933,,,,,,1750682782.675096,,,,,,,,,,,,,,,,,,,,,,,,,,,,,,,,,,,,,,,,,,,,,,,,,,,,,,,,,,,,,,,,,,,,,,,,,,,,,,,,,,,,,,,,,,,,,,,,,,,,,,,,,,,,,,,,,,,,,,,,,,,,,,,,,,,,,"(b'ID,STR=""Nucleus1000 - NLR"",SN=300293\r\nGETHW,DIGITAL=""D-0"",ANALOG=""C-0""\r\nGETFW,STR=""4.0.1"",MAJOR=4,MINOR=0,PATCH=1,EXTRA="""",BUILD=0,HASH=""cfa18c27"",DVLFW=4500,DVLMINOR=3,DVLBOOT=73,DVLFPGA=1016\r\nGETETH,IPMETHOD=""DHCP"",IP=""192.168.1.201"",NETMASK=""255.255.255.0"",GATEWAY=""192.168.1.1""\r\nREADIP,IP="""",NETMASK="""",GATEWAY="""",LEASETIME=0\r\nGETCLOCKSTR,TIME=""2025-06-23 12:46:21""\r\nGETINST,TYPE=""NAV"",ROTXY=0.00,ROTYZ=0.00,ROTXZ=0.00,LED=""ON""\r\nGETMISSION,POFF=9.50,LONG=90.412407000,LAT=23.776713000,DECL=0.00,RANGE=50.00,BD=0.10,SV=1500.00,SA=35.00\r\nGETAHRS,FREQ=10,MODE=2,DS=""ON"",DF=210,TYPE=""NORMAL""\r\nGETNAV,FREQ=10,DS=""ON"",DF=220,USEWT=""OFF""\r\nGETFIELDCAL,MODE=1\r\nGETBT,MODE=""FAST_ACQ"",VR=5.00,WT=""ON"",PL=-2.00,PLMODE=""MAX"",DS=""ON"",DF=180\r\nGETALTI,PL=0.00,DS=""ON"",DF=170\r\nGETCURPROF,RANGE=30.00,CS=0.50,BD=0.50,COORD=""BEAM"",DS=""ON"",DF=192\r\nGETTRIG,SRC=""INTERNAL"",FREQ=2.00,ALTI=4,CP=0\r\nGETIMU,FREQ=100,DS=""ON"",DF=130\r\nGETMAG,FREQ=75,METHOD=""AUTO"",DS=""ON"",DF=135\r\nGETMAGCAL,HX=0.0806,HY=-0.0433,HZ=0.0526,M11=0.9913,M12=-0.0122,M13=-0.0364,M21=-0.0216,M22=0.8972,M23=0.1216,M31=0.0485,M32=0.0420,M33=1.1115\r\nGETPROD,CALV=2,IMPRV=2,H=0,T=0,C=0,PS=0,DR=300\r\nLISTLICENSE,KEY=""FKJWLWR1HHH8L"",DESC=""Bottom Track"",TYPE=1\r\nLISTLICENSE,KEY=""6B2NT6PMHHH8L"",DESC=""Altimeter"",TYPE=2\r\nLISTLICENSE,KEY=""X1H1DDXEHHH8L"",DESC=""Current Profile"",TYPE=3\r\nLISTLICENSE,KEY=""58GF14W3HHH8L"",DESC=""AHRS"",TYPE=4\r\nLISTLICENSE,KEY=""4EB98GAZHHH8L"",DESC=""INS"",TYPE=5\r\n',)"
10,130,32,44,54,3809,61376,1,16,True,1750682782,547087,1750682782.755106,,,,,,,,,,,,,,,,,,,,,,,,,,,37.400001525878906,,,,,,,,,,,,,,,,,,True,False,False,False,False,False,False,False,False,False,False,-0.7630336880683899,0.31236863136291504,-9.76469898223877,-0.005665793549269438,-0.0004185651196166873,-0.0048469603061676025,,,,,,,,,,,,,,,,,,,,,,,,,,,,,,,,,,,,,,,,,,,,,,,,,,,,,,,,,,,,,,,,,,,,,,,,
10,130,32,44,54,38876,30907,1,16,True,1750682782,557066,1750682782.755238,,,,,,,,,,,,,,,,,,,,,,,,,,,37.29999923706055,,,,,,,,,,,,,,,,,,True,False,False,False,False,False,False,False,False,False,False,-0.7727916240692139,0.34716036915779114,-9.760296821594238,-0.006090841256082058,0.0037180688232183456,-0.004324765410274267,,,,,,,,,,,,,,,,,,,,,,,,,,,,,,,,,,,,,,,,,,,,,,,,,,,,,,,,,,,,,,,,,,,,,,,,
10,130,32,44,54,65352,57383,1,16,True,1750682782,567076,1750682782.755316,,,,,,,,,,,,,,,,,,,,,,,,,,,37.5,,,,,,,,,,,,,,,,,,True,False,False,False,False,False,False,False,False,False,False,-0.7581855058670044,0.3517078459262848,-9.73692798614502,-0.0022746685426682234,0.0004102379607502371,-0.0005381061928346753,,,,,,,,,,,,,,,,,,,,,,,,,,,,,,,,,,,,,,,,,,,,,,,,,,,,,,,,,,,,,,,,,,,,,,,,
10,130,32,44,54,45310,37341,1,16,True,1750682782,577086,1750682782.755388,,,,,,,,,,,,,,,,,,,,,,,,,,,37.599998474121094,,,,,,,,,,,,,,,,,,True,False,False,False,False,False,False,False,False,False,False,-0.7600110769271851,0.327049195766449,-9.757076263427734,0.00025397303397767246,-0.005342832300812006,0.0008333692676387727,,,,,,,,,,,,,,,,,,,,,,,,,,,,,,,,,,,,,,,,,,,,,,,,,,,,,,,,,,,,,,,,,,,,,,,,
10,130,32,44,54,3418,60985,1,16,True,1750682782,587065,1750682782.755459,,,,,,,,,,,,,,,,,,,,,,,,,,,37.29999923706055,,,,,,,,,,,,,,,,,,True,False,False,False,False,False,False,False,False,False,False,-0.7641952633857727,0.3238166570663452,-9.768865585327148,-0.0010266723111271858,-0.003150117350742221,0.003066640580072999,,,,,,,,,,,,,,,,,,,,,,,,,,,,,,,,,,,,,,,,,,,,,,,,,,,,,,,,,,,,,,,,,,,,,,,,
10,130,32,44,54,34410,26441,1,16,True,1750682782,597075,1750682782.755527,,,,,,,,,,,,,,,,,,,,,,,,,,,37.5,,,,,,,,,,,,,,,,,,True,False,False,False,False,False,False,False,False,False,False,-0.7717947959899902,0.32792186737060547,-9.775121688842773,-0.0002147043269360438,0.00165883032605052,-0.0003582274657674134,,,,,,,,,,,,,,,,,,,,,,,,,,,,,,,,,,,,,,,,,,,,,,,,,,,,,,,,,,,,,,,,,,,,,,,,
10,130,32,44,54,35029,27060,1,16,True,1750682782,607054,1750682782.755622,,,,,,,,,,,,,,,,,,,,,,,,,,,37.5,,,,,,,,,,,,,,,,,,True,False,False,False,False,False,False,False,False,False,False,-0.7641608715057373,0.34587419033050537,-9.751264572143555,0.0007057750481180847,0.0043839639984071255,-0.0011230319505557418,,,,,,,,,,,,,,,,,,,,,,,,,,,,,,,,,,,,,,,,,,,,,,,,,,,,,,,,,,,,,,,,,,,,,,,,
10,130,32,44,54,38660,30691,1,16,True,1750682782,617064,1750682782.755721,,,,,,,,,,,,,,,,,,,,,,,,,,,37.29999923706055,,,,,,,,,,,,,,,,,,True,False,False,False,False,False,False,False,False,False,False,-0.7601333260536194,0.33102118968963623,-9.75256633758545,0.0019358996069058776,-0.0002499232941772789,0.002737622009590268,,,,,,,,,,,,,,,,,,,,,,,,,,,,,,,,,,,,,,,,,,,,,,,,,,,,,,,,,,,,,,,,,,,,,,,,
10,130,32,44,54,54460,46491,1,16,True,1750682782,627043,1750682782.839416,,,,,,,,,,,,,,,,,,,,,,,,,,,37.5,,,,,,,,,,,,,,,,,,True,False,False,False,False,False,False,False,False,False,False,-0.7608383297920227,0.32773759961128235,-9.762266159057617,0.0007160836830735207,-0.0032812475692480803,0.002213449450209737,,,,,,,,,,,,,,,,,,,,,,,,,,,,,,,,,,,,,,,,,,,,,,,,,,,,,,,,,,,,,,,,,,,,,,,,
10,130,32,44,54,30153,22184,1,16,True,1750682782,637053,1750682782.839532,,,,,,,,,,,,,,,,,,,,,,,,,,,37.400001525878906,,,,,,,,,,,,,,,,,,True,False,False,False,False,False,False,False,False,False,False,-0.75694340467453,0.3252567946910858,-9.76538372039795,-0.003172180848196149,-0.00012542435433715582,0.00014592634397558868,,,,,,,,,,,,,,,,,,,,,,,,,,,,,,,,,,,,,,,,,,,,,,,,,,,,,,,,,,,,,,,,,,,,,,,,
10,130,32,44,54,5833,63400,1,16,True,1750682782,647032,1750682782.839614,,,,,,,,,,,,,,,,,,,,,,,,,,,37.5,,,,,,,,,,,,,,,,,,True,False,False,False,False,False,False,False,False,False,False,-0.7563371658325195,0.3471178710460663,-9.755011558532715,-0.00431803148239851,0.0015892331721261144,-0.0030336747877299786,,,,,,,,,,,,,,,,,,,,,,,,,,,,,,,,,,,,,,,,,,,,,,,,,,,,,,,,,,,,,,,,,,,,,,,,
10,130,32,44,54,34040,26071,1,16,True,1750682782,657042,1750682782.840161,,,,,,,,,,,,,,,,,,,,,,,,,,,37.599998474121094,,,,,,,,,,,,,,,,,,True,False,False,False,False,False,False,False,False,False,False,-0.7642922401428223,0.333749920129776,-9.742965698242188,-0.0019185610581189394,0.00017786068201530725,-0.002083279425278306,,,,,,,,,,,,,,,,,,,,,,,,,,,,,,,,,,,,,,,,,,,,,,,,,,,,,,,,,,,,,,,,,,,,,,,,
10,130,32,44,54,1385,58952,1,16,True,1750682782,667021,1750682782.840262,,,,,,,,,,,,,,,,,,,,,,,,,,,37.599998474121094,,,,,,,,,,,,,,,,,,True,False,False,False,False,False,False,False,False,False,False,-0.7667919993400574,0.338386207818985,-9.746562004089355,-6.548472447320819e-05,-0.005135818384587765,-0.0017445122357457876,,,,,,,,,,,,,,,,,,,,,,,,,,,,,,,,,,,,,,,,,,,,,,,,,,,,,,,,,,,,,,,,,,,,,,,,
10,130,32,44,54,13196,5227,1,16,True,1750682782,677031,1750682782.840345,,,,,,,,,,,,,,,,,,,,,,,,,,,37.5,,,,,,,,,,,,,,,,,,True,False,False,False,False,False,False,False,False,False,False,-0.7682710886001587,0.3309418559074402,-9.763625144958496,0.00014864318654872477,-0.00677577406167984,0.00014302994532044977,,,,,,,,,,,,,,,,,,,,,,,,,,,,,,,,,,,,,,,,,,,,,,,,,,,,,,,,,,,,,,,,,,,,,,,,
10,130,32,44,54,58178,50209,1,16,True,1750682782,687041,1750682782.840416,,,,,,,,,,,,,,,,,,,,,,,,,,,37.5,,,,,,,,,,,,,,,,,,True,False,False,False,False,False,False,False,False,False,False,-0.7643703818321228,0.32455238699913025,-9.770238876342773,-0.00227256934158504,-0.0018051674123853445,-0.0008850733865983784,,,,,,,,,,,,,,,,,,,,,,,,,,,,,,,,,,,,,,,,,,,,,,,,,,,,,,,,,,,,,,,,,,,,,,,,
10,130,32,44,54,53504,45535,1,16,True,1750682782,697021,1750682782.840484,,,,,,,,,,,,,,,,,,,,,,,,,,,37.5,,,,,,,,,,,,,,,,,,True,False,False,False,False,False,False,False,False,False,False,-0.7639303803443909,0.3318900465965271,-9.760766983032227,-0.0028115427121520042,0.003694492857903242,-0.0019070281414315104,,,,,,,,,,,,,,,,,,,,,,,,,,,,,,,,,,,,,,,,,,,,,,,,,,,,,,,,,,,,,,,,,,,,,,,,
10,130,32,44,54,52135,44166,1,16,True,1750682782,707031,1750682782.913847,,,,,,,,,,,,,,,,,,,,,,,,,,,37.5,,,,,,,,,,,,,,,,,,True,False,False,False,False,False,False,False,False,False,False,-0.7692059278488159,0.3367587625980377,-9.760842323303223,-0.001994490157812834,0.0021511439699679613,0.000584170687943697,,,,,,,,,,,,,,,,,,,,,,,,,,,,,,,,,,,,,,,,,,,,,,,,,,,,,,,,,,,,,,,,,,,,,,,,
10,130,32,44,54,21259,13290,1,16,True,1750682782,717010,1750682782.913962,,,,,,,,,,,,,,,,,,,,,,,,,,,37.5,,,,,,,,,,,,,,,,,,True,False,False,False,False,False,False,False,False,False,False,-0.7651482820510864,0.34439554810523987,-9.758217811584473,0.0008001207606866956,-0.00012587392120622098,0.0017901964019984007,,,,,,,,,,,,,,,,,,,,,,,,,,,,,,,,,,,,,,,,,,,,,,,,,,,,,,,,,,,,,,,,,,,,,,,,
10,130,32,44,54,25036,17067,1,16,True,1750682782,727020,1750682782.914053,,,,,,,,,,,,,,,,,,,,,,,,,,,37.5,,,,,,,,,,,,,,,,,,True,False,False,False,False,False,False,False,False,False,False,-0.7870880961418152,0.33702629804611206,-9.759848594665527,0.0013034649891778827,-0.0018263427773490548,0.002733992412686348,,,,,,,,,,,,,,,,,,,,,,,,,,,,,,,,,,,,,,,,,,,,,,,,,,,,,,,,,,,,,,,,,,,,,,,,
10,130,32,44,54,40944,32975,1,16,True,1750682782,736999,1750682782.914128,,,,,,,,,,,,,,,,,,,,,,,,,,,37.5,,,,,,,,,,,,,,,,,,True,False,False,False,False,False,False,False,False,False,False,-0.7732212543487549,0.3237215280532837,-9.75908088684082,0.0010272801155224442,0.00043077344889752567,0.0014486650470644236,,,,,,,,,,,,,,,,,,,,,,,,,,,,,,,,,,,,,,,,,,,,,,,,,,,,,,,,,,,,,,,,,,,,,,,,
10,130,32,44,54,9401,1432,1,16,True,1750682782,747009,1750682782.914198,,,,,,,,,,,,,,,,,,,,,,,,,,,37.5,,,,,,,,,,,,,,,,,,True,False,False,False,False,False,False,False,False,False,False,-0.7591184973716736,0.3342724144458771,-9.757776260375977,0.0001437043829355389,0.0025025091599673033,0.0011923465644940734,,,,,,,,,,,,,,,,,,,,,,,,,,,,,,,,,,,,,,,,,,,,,,,,,,,,,,,,,,,,,,,,,,,,,,,,
10,130,32,44,54,13276,5307,1,16,True,1750682782,756988,1750682782.914266,,,,,,,,,,,,,,,,,,,,,,,,,,,37.5,,,,,,,,,,,,,,,,,,True,False,False,False,False,False,False,False,False,False,False,-0.761498212814331,0.337285578250885,-9.73768138885498,3.3666190574876964e-05,0.0011647924548014998,-0.002161798533052206,,,,,,,,,,,,,,,,,,,,,,,,,,,,,,,,,,,,,,,,,,,,,,,,,,,,,,,,,,,,,,,,,,,,,,,,
10,130,32,44,54,3512,61079,1,16,True,1750682782,766998,1750682782.914335,,,,,,,,,,,,,,,,,,,,,,,,,,,37.29999923706055,,,,,,,,,,,,,,,,,,True,False,False,False,False,False,False,False,False,False,False,-0.7756853699684143,0.34290075302124023,-9.752090454101562,0.002412674715742469,-0.001034554443322122,0.0005897068185731769,,,,,,,,,,,,,,,,,,,,,,,,,,,,,,,,,,,,,,,,,,,,,,,,,,,,,,,,,,,,,,,,,,,,,,,,
10,130,32,44,54,58288,50319,1,16,True,1750682782,776977,1750682782.914423,,,,,,,,,,,,,,,,,,,,,,,,,,,37.5,,,,,,,,,,,,,,,,,,True,False,False,False,False,False,False,False,False,False,False,-0.7728579044342041,0.3240708112716675,-9.76584529876709,0.003644229844212532,-0.0034271148033440113,0.000160127819981426,,,,,,,,,,,,,,,,,,,,,,,,,,,,,,,,,,,,,,,,,,,,,,,,,,,,,,,,,,,,,,,,,,,,,,,,
10,130,32,44,54,45988,38019,1,16,True,1750682782,786987,1750682782.997957,,,,,,,,,,,,,,,,,,,,,,,,,,,37.5,,,,,,,,,,,,,,,,,,True,False,False,False,False,False,False,False,False,False,False,-0.769171416759491,0.32109639048576355,-9.767120361328125,-0.00030874161166138947,-0.0015433263033628464,-0.0012228916166350245,,,,,,,,,,,,,,,,,,,,,,,,,,,,,,,,,,,,,,,,,,,,,,,,,,,,,,,,,,,,,,,,,,,,,,,,
10,130,32,44,54,24302,16333,1,16,True,1750682782,796966,1750682782.998072,,,,,,,,,,,,,,,,,,,,,,,,,,,37.5,,,,,,,,,,,,,,,,,,True,False,False,False,False,False,False,False,False,False,False,-0.7730615139007568,0.32695111632347107,-9.755210876464844,-0.0059408266097307205,0.0022312174551188946,-0.001318003865890205,,,,,,,,,,,,,,,,,,,,,,,,,,,,,,,,,,,,,,,,,,,,,,,,,,,,,,,,,,,,,,,,,,,,,,,,
10,130,32,44,54,55172,47203,1,16,True,1750682782,806976,1750682782.998148,,,,,,,,,,,,,,,,,,,,,,,,,,,37.5,,,,,,,,,,,,,,,,,,True,False,False,False,False,False,False,False,False,False,False,-0.763365626335144,0.334933340549469,-9.745674133300781,-0.0076058427803218365,0.0025848441291600466,-0.0005488822935149074,,,,,,,,,,,,,,,,,,,,,,,,,,,,,,,,,,,,,,,,,,,,,,,,,,,,,,,,,,,,,,,,,,,,,,,,
10,130,32,44,54,33410,25441,1,16,True,1750682782,816955,1750682782.998218,,,,,,,,,,,,,,,,,,,,,,,,,,,37.5,,,,,,,,,,,,,,,,,,True,False,False,False,False,False,False,False,False,False,False,-0.7605876922607422,0.3387819230556488,-9.74349308013916,-0.007051852531731129,-0.0016630854224786162,0.0031393987592309713,,,,,,,,,,,,,,,,,,,,,,,,,,,,,,,,,,,,,,,,,,,,,,,,,,,,,,,,,,,,,,,,,,,,,,,,
10,130,32,44,54,55365,47396,1,16,True,1750682782,826965,1750682782.998321,,,,,,,,,,,,,,,,,,,,,,,,,,,37.5,,,,,,,,,,,,,,,,,,True,False,False,False,False,False,False,False,False,False,False,-0.763965904712677,0.33432143926620483,-9.747535705566406,-0.005139179527759552,-0.005075724795460701,0.00511516397818923,,,,,,,,,,,,,,,,,,,,,,,,,,,,,,,,,,,,,,,,,,,,,,,,,,,,,,,,,,,,,,,,,,,,,,,,
10,130,32,44,54,33778,25809,1,16,True,1750682782,836975,1750682782.998392,,,,,,,,,,,,,,,,,,,,,,,,,,,37.70000076293945,,,,,,,,,,,,,,,,,,True,False,False,False,False,False,False,False,False,False,False,-0.765451967716217,0.3375072777271271,-9.772307395935059,-0.007831942290067673,-0.002532069105654955,0.0027067228220403194,,,,,,,,,,,,,,,,,,,,,,,,,,,,,,,,,,,,,,,,,,,,,,,,,,,,,,,,,,,,,,,,,,,,,,,,
10,130,32,44,54,51588,43619,1,16,True,1750682782,846954,1750682782.99846,,,,,,,,,,,,,,,,,,,,,,,,,,,37.70000076293945,,,,,,,,,,,,,,,,,,True,False,False,False,False,False,False,False,False,False,False,-0.7702022790908813,0.336922287940979,-9.776277542114258,-0.006714493967592716,0.0009052663808688521,0.0016858013113960624,,,,,,,,,,,,,,,,,,,,,,,,,,,,,,,,,,,,,,,,,,,,,,,,,,,,,,,,,,,,,,,,,,,,,,,,
10,130,32,44,54,1864,59431,1,16,True,1750682782,856964,1750682782.998527,,,,,,,,,,,,,,,,,,,,,,,,,,,37.5,,,,,,,,,,,,,,,,,,True,False,False,False,False,False,False,False,False,False,False,-0.7717065215110779,0.34164494276046753,-9.761015892028809,-0.0027466060128062963,0.002045214641839266,-0.0011374372988939285,,,,,,,,,,,,,,,,,,,,,,,,,,,,,,,,,,,,,,,,,,,,,,,,,,,,,,,,,,,,,,,,,,,,,,,,
10,130,32,44,54,56936,48967,1,16,True,1750682782,866942,1750682783.082713,,,,,,,,,,,,,,,,,,,,,,,,,,,37.5,,,,,,,,,,,,,,,,,,True,False,False,False,False,False,False,False,False,False,False,-0.7662926912307739,0.3389057517051697,-9.745527267456055,0.002197503112256527,-0.0012004232266917825,0.002136080991476774,,,,,,,,,,,,,,,,,,,,,,,,,,,,,,,,,,,,,,,,,,,,,,,,,,,,,,,,,,,,,,,,,,,,,,,,
10,130,32,44,54,37175,29206,1,16,True,1750682782,876952,1750682783.082894,,,,,,,,,,,,,,,,,,,,,,,,,,,37.5,,,,,,,,,,,,,,,,,,True,False,False,False,False,False,False,False,False,False,False,-0.7725125551223755,0.33448705077171326,-9.740750312805176,0.0041138906963169575,-0.004344543907791376,0.004713936243206263,,,,,,,,,,,,,,,,,,,,,,,,,,,,,,,,,,,,,,,,,,,,,,,,,,,,,,,,,,,,,,,,,,,,,,,,
10,130,32,44,54,23808,15839,1,16,True,1750682782,886931,1750682783.083011,,,,,,,,,,,,,,,,,,,,,,,,,,,37.5,,,,,,,,,,,,,,,,,,True,False,False,False,False,False,False,False,False,False,False,-0.7709733247756958,0.32724320888519287,-9.761487007141113,0.00028938244213350117,-0.004604875575751066,0.0054761325009167194,,,,,,,,,,,,,,,,,,,,,,,,,,,,,,,,,,,,,,,,,,,,,,,,,,,,,,,,,,,,,,,,,,,,,,,,
10,130,32,44,54,43741,35772,1,16,True,1750682782,896941,1750682783.083123,,,,,,,,,,,,,,,,,,,,,,,,,,,37.5,,,,,,,,,,,,,,,,,,True,False,False,False,False,False,False,False,False,False,False,-0.7733677625656128,0.32900792360305786,-9.76505184173584,-0.005239402875304222,0.0010041594505310059,0.0036671024281531572,,,,,,,,,,,,,,,,,,,,,,,,,,,,,,,,,,,,,,,,,,,,,,,,,,,,,,,,,,,,,,,,,,,,,,,,
10,130,32,44,54,29329,21360,1,16,True,1750682782,906920,1750682783.083261,,,,,,,,,,,,,,,,,,,,,,,,,,,37.5,,,,,,,,,,,,,,,,,,True,False,False,False,False,False,False,False,False,False,False,-0.7733270525932312,0.318250447511673,-9.758450508117676,-0.007439537439495325,0.002712543122470379,0.0031483417842537165,,,,,,,,,,,,,,,,,,,,,,,,,,,,,,,,,,,,,,,,,,,,,,,,,,,,,,,,,,,,,,,,,,,,,,,,
10,130,32,44,54,50520,42551,1,16,True,1750682782,916930,1750682783.08339,,,,,,,,,,,,,,,,,,,,,,,,,,,37.5,,,,,,,,,,,,,,,,,,True,False,False,False,False,False,False,False,False,False,False,-0.7673247456550598,0.33608555793762207,-9.741887092590332,-0.007976124063134193,-0.0009257694473490119,0.003568340791389346,,,,,,,,,,,,,,,,,,,,,,,,,,,,,,,,,,,,,,,,,,,,,,,,,,,,,,,,,,,,,,,,,,,,,,,,
10,130,32,44,54,62321,54352,1,16,True,1750682782,926909,1750682783.083508,,,,,,,,,,,,,,,,,,,,,,,,,,,37.79999923706055,,,,,,,,,,,,,,,,,,True,False,False,False,False,False,False,False,False,False,False,-0.7635238766670227,0.3303357660770416,-9.75910472869873,-0.010263627395033836,-0.006389179266989231,0.005528648849576712,,,,,,,,,,,,,,,,,,,,,,,,,,,,,,,,,,,,,,,,,,,,,,,,,,,,,,,,,,,,,,,,,,,,,,,,
10,130,32,44,54,25392,17423,1,16,True,1750682782,936919,1750682783.083716,,,,,,,,,,,,,,,,,,,,,,,,,,,37.70000076293945,,,,,,,,,,,,,,,,,,True,False,False,False,False,False,False,False,False,False,False,-0.7669631838798523,0.32605597376823425,-9.767036437988281,-0.010784031823277473,-0.006030466873198748,0.0038949481677263975,,,,,,,,,,,,,,,,,,,,,,,,,,,,,,,,,,,,,,,,,,,,,,,,,,,,,,,,,,,,,,,,,,,,,,,,
10,130,32,44,54,13735,5766,1,16,True,1750682782,946898,1750682783.136014,,,,,,,,,,,,,,,,,,,,,,,,,,,37.599998474121094,,,,,,,,,,,,,,,,,,True,False,False,False,False,False,False,False,False,False,False,-0.7624977231025696,0.32955828309059143,-9.783367156982422,-0.0085408641025424,-0.0009603665093891323,0.0009042042656801641,,,,,,,,,,,,,,,,,,,,,,,,,,,,,,,,,,,,,,,,,,,,,,,,,,,,,,,,,,,,,,,,,,,,,,,,
10,130,32,44,54,36327,28358,1,16,True,1750682782,956908,1750682783.136128,,,,,,,,,,,,,,,,,,,,,,,,,,,37.599998474121094,,,,,,,,,,,,,,,,,,True,False,False,False,False,False,False,False,False,False,False,-0.7691441774368286,0.3406975567340851,-9.751720428466797,-0.0028801667504012585,0.0021042600274086,-0.0030266002286225557,,,,,,,,,,,,,,,,,,,,,,,,,,,,,,,,,,,,,,,,,,,,,,,,,,,,,,,,,,,,,,,,,,,,,,,,
10,130,32,44,54,39081,31112,1,16,True,1750682782,966887,1750682783.136205,,,,,,,,,,,,,,,,,,,,,,,,,,,37.5,,,,,,,,,,,,,,,,,,True,False,False,False,False,False,False,False,False,False,False,-0.7617409825325012,0.3378402888774872,-9.733240127563477,9.186167881125584e-05,-0.002105449791997671,0.00049529381794855,,,,,,,,,,,,,,,,,,,,,,,,,,,,,,,,,,,,,,,,,,,,,,,,,,,,,,,,,,,,,,,,,,,,,,,,
10,130,32,44,54,25356,17387,1,16,True,1750682782,976897,1750682783.136278,,,,,,,,,,,,,,,,,,,,,,,,,,,37.5,,,,,,,,,,,,,,,,,,True,False,False,False,False,False,False,False,False,False,False,-0.766940712928772,0.33959341049194336,-9.74886703491211,-0.00010214252688456327,-0.008175607770681381,0.004606936126947403,,,,,,,,,,,,,,,,,,,,,,,,,,,,,,,,,,,,,,,,,,,,,,,,,,,,,,,,,,,,,,,,,,,,,,,,
10,180,32,128,138,48342,40507,1,36,True,1750682782,871397,1750682783.136405,,300293,,,,,,,,,,,,,,,,,,,,,,,,,29.921875,0.049800027161836624,,,,,,,,,,,,,,,,,,,,,,,,,,,,,,,,,,,,,,,,,False,False,False,False,False,False,False,False,False,False,False,False,False,False,False,1500.0,-32.768001556396484,-32.768001556396484,-32.768001556396484,0.0,0.0,0.0,10.0,10.0,10.0,0.3079180121421814,0.19668665528297424,0.08590300381183624,0.0,0.00041666667675599456,0.0,-32.768001556396484,-32.768001556396484,-32.768001556396484,10.0,10.0,10.0,0.024723999202251434,0.0,,,,,,,,,,,,,,,,,,,,,,,,,,
10,190,32,128,138,43062,35237,1,36,True,1750682782,871397,1750682783.136531,,300293,,,,,,,,,,,,,,,,,,,,,,,,,29.921875,0.049800027161836624,,,,,,,,,,,,,,,,,,,,,,,,,,,,,,,,,,,,,,,,,False,False,False,False,False,False,False,False,False,False,False,False,False,False,False,1500.0,-32.768001556396484,-32.768001556396484,-32.768001556396484,0.0,0.0,0.0,10.0,10.0,10.0,0.30054718255996704,0.18952417373657227,0.07853216677904129,0.006674999836832285,0.006674999836832285,0.006674999836832285,-32.768001556396484,-32.768001556396484,-32.768001556396484,10.0,10.0,10.0,0.03209483250975609,0.0,,,,,,,,,,,,,,,,,,,,,,,,,,
10,130,32,44,54,34664,26695,1,16,True,1750682782,986876,1750682783.178412,,,,,,,,,,,,,,,,,,,,,,,,,,,37.5,,,,,,,,,,,,,,,,,,True,False,False,False,False,False,False,False,False,False,False,-0.7838136553764343,0.3253251910209656,-9.786067008972168,-0.0028887856751680374,-0.004462952725589275,0.005552016664296389,,,,,,,,,,,,,,,,,,,,,,,,,,,,,,,,,,,,,,,,,,,,,,,,,,,,,,,,,,,,,,,,,,,,,,,,
10,130,32,44,54,55891,47922,1,16,True,1750682782,996886,1750682783.178524,,,,,,,,,,,,,,,,,,,,,,,,,,,37.5,,,,,,,,,,,,,,,,,,True,False,False,False,False,False,False,False,False,False,False,-0.7680460810661316,0.3338029980659485,-9.78160285949707,-0.004558851942420006,0.003678781446069479,0.004103125538676977,,,,,,,,,,,,,,,,,,,,,,,,,,,,,,,,,,,,,,,,,,,,,,,,,,,,,,,,,,,,,,,,,,,,,,,,
10,135,32,28,38,24731,16751,1,16,True,1750682782,998473,1750682783.178646,,,,,,,,,,,,,,,,,,,,,,,,,,,,,,,,,,,,,,,,,,,,,,,,,,,,,,,,,,,,,,False,False,False,False,-0.3722686469554901,0.07602985203266144,0.12707462906837463,,,,,,,,,,,,,,,,,,,,,,,,,,,,,,,,,,,,,,,,,,,,,,,,,,,,,,,,,,,,,,,,,
10,130,32,44,54,33195,25226,1,16,True,1750682783,6865,1750682783.178713,,,,,,,,,,,,,,,,,,,,,,,,,,,37.5,,,,,,,,,,,,,,,,,,True,False,False,False,False,False,False,False,False,False,False,-0.7672958970069885,0.3391664922237396,-9.742950439453125,-0.004930241033434868,0.008280239999294281,0.004197172820568085,,,,,,,,,,,,,,,,,,,,,,,,,,,,,,,,,,,,,,,,,,,,,,,,,,,,,,,,,,,,,,,,,,,,,,,,
10,135,32,28,38,58930,50950,1,16,True,1750682783,10009,1750682783.178779,,,,,,,,,,,,,,,,,,,,,,,,,,,,,,,,,,,,,,,,,,,,,,,,,,,,,,,,,,,,,,False,False,False,False,-0.3715522289276123,0.07620895653963089,0.12340298295021057,,,,,,,,,,,,,,,,,,,,,,,,,,,,,,,,,,,,,,,,,,,,,,,,,,,,,,,,,,,,,,,,,
10,130,32,44,54,20883,12914,1,16,True,1750682783,16875,1750682783.178842,,,,,,,,,,,,,,,,,,,,,,,,,,,37.5,,,,,,,,,,,,,,,,,,True,False,False,False,False,False,False,False,False,False,False,-0.7556681632995605,0.34901633858680725,-9.729140281677246,-0.0060562086291611195,0.002592040691524744,0.007362178526818752,,,,,,,,,,,,,,,,,,,,,,,,,,,,,,,,,,,,,,,,,,,,,,,,,,,,,,,,,,,,,,,,,,,,,,,,
10,135,32,28,38,57904,49924,1,16,True,1750682783,21574,1750682783.179499,,,,,,,,,,,,,,,,,,,,,,,,,,,,,,,,,,,,,,,,,,,,,,,,,,,,,,,,,,,,,,False,False,False,False,-0.37352240085601807,0.07388059794902802,0.12465671449899673,,,,,,,,,,,,,,,,,,,,,,,,,,,,,,,,,,,,,,,,,,,,,,,,,,,,,,,,,,,,,,,,,
10,130,32,44,54,60602,52633,1,16,True,1750682783,26885,1750682783.1796,,,,,,,,,,,,,,,,,,,,,,,,,,,37.5,,,,,,,,,,,,,,,,,,True,False,False,False,False,False,False,False,False,False,False,-0.7751263976097107,0.32989686727523804,-9.754115104675293,-0.006025983951985836,-0.005528910085558891,0.008807005360722542,,,,,,,,,,,,,,,,,,,,,,,,,,,,,,,,,,,,,,,,,,,,,,,,,,,,,,,,,,,,,,,,,,,,,,,,
10,135,32,28,38,35098,27118,1,16,True,1750682783,33111,1750682783.179674,,,,,,,,,,,,,,,,,,,,,,,,,,,,,,,,,,,,,,,,,,,,,,,,,,,,,,,,,,,,,,False,False,False,False,-0.3715522289276123,0.07638806104660034,0.1238507479429245,,,,,,,,,,,,,,,,,,,,,,,,,,,,,,,,,,,,,,,,,,,,,,,,,,,,,,,,,,,,,,,,,
10,130,32,44,54,20662,12693,1,16,True,1750682783,36864,1750682783.179739,,,,,,,,,,,,,,,,,,,,,,,,,,,37.70000076293945,,,,,,,,,,,,,,,,,,True,False,False,False,False,False,False,False,False,False,False,-0.7737654447555542,0.3108246922492981,-9.780816078186035,-0.007657292298972607,-0.0029867233242839575,0.006573457736521959,,,,,,,,,,,,,,,,,,,,,,,,,,,,,,,,,,,,,,,,,,,,,,,,,,,,,,,,,,,,,,,,,,,,,,,,
10,210,32,108,118,52277,44452,2,36,True,1750682783,36864,1750682783.221441,,300293,2,-1.9997385740280151,-4.49219274520874,193.59231567382812,-0.1175493523478508,0.04097384214401245,-0.012677056714892387,0.9921404123306274,-0.9690065979957581,0.23221206665039062,0.0842839777469635,-0.23428978025913239,-0.9720428586006165,-0.015521942637860775,0.07832325249910355,-0.03478773683309555,0.9963208436965942,-0.4436131715774536,0.0,0.1789504587650299,100.0,,,,,,,,,,,,,,,,,,,,,,,,,,,,,,,,,,,,,,,,,,,,,,,,,,,,,,,,,,,,,,,,,,,,,,,,,,,,,,,,,,,,,,,,,,,,,,,,,,,,,,,,,,,,,,
10,220,32,208,218,53313,45598,2,36,True,1750682783,36864,1750682783.221677,,300293,2,-1.9997385740280151,-4.49219274520874,193.59231567382812,-0.1175493523478508,0.04097384214401245,-0.012677056714892387,0.9921404123306274,-0.9690065979957581,0.23221206665039062,0.0842839777469635,-0.23428978025913239,-0.9720428586006165,-0.015521942637860775,0.07832325249910355,-0.03478773683309555,0.9963208436965942,-0.4436131715774536,0.0,0.1789504587650299,100.0,1.7326034307479858,True,0.0,29.9375,0.05069999769330025,0.0,23.77671300020838,90.412407,0.0,0.0,0.05000000074505806,0.0,0.0,0.0,0.0,0.0,0.0,0.0,-0.2301073521375656,-0.1788714975118637,0.3670090138912201,,,,,,,,,,,,,,,,,,,,,,,,,,,,,,,,,,,,,,,,,,,,,,,,,,,,,,,,,,,,,,,,,,,,,,,,,,,,,,,,,,,,,,,,,
10,130,32,44,54,39292,31323,1,16,True,1750682783,46875,1750682783.221789,,,,,,,,,,,,,,,,,,,,,,,,,,,37.5,,,,,,,,,,,,,,,,,,True,False,False,False,False,False,False,False,False,False,False,-0.773071825504303,0.32789456844329834,-9.780205726623535,-0.00550858722999692,0.0037273478228598833,0.0001460650091757998,,,,,,,,,,,,,,,,,,,,,,,,,,,,,,,,,,,,,,,,,,,,,,,,,,,,,,,,,,,,,,,,,,,,,,,,
10,130,32,44,54,2856,60423,1,16,True,1750682783,56854,1750682783.221863,,,,,,,,,,,,,,,,,,,,,,,,,,,37.5,,,,,,,,,,,,,,,,,,True,False,False,False,False,False,False,False,False,False,False,-0.7569695711135864,0.34609586000442505,-9.744377136230469,-0.000576724240090698,0.005177863873541355,-0.00241476041264832,,,,,,,,,,,,,,,,,,,,,,,,,,,,,,,,,,,,,,,,,,,,,,,,,,,,,,,,,,,,,,,,,,,,,,,,
10,130,32,44,54,36136,28167,1,16,True,1750682783,66864,1750682783.221935,,,,,,,,,,,,,,,,,,,,,,,,,,,37.5,,,,,,,,,,,,,,,,,,True,False,False,False,False,False,False,False,False,False,False,-0.7506723403930664,0.3453378975391388,-9.721968650817871,0.0038953188341110945,-0.0038214062806218863,0.0022215682547539473,,,,,,,,,,,,,,,,,,,,,,,,,,,,,,,,,,,,,,,,,,,,,,,,,,,,,,,,,,,,,,,,,,,,,,,,
10,130,32,44,54,32677,24708,1,16,True,1750682783,76843,1750682783.263292,,,,,,,,,,,,,,,,,,,,,,,,,,,37.5,,,,,,,,,,,,,,,,,,True,False,False,False,False,False,False,False,False,False,False,-0.770885169506073,0.32126474380493164,-9.746170997619629,0.001467346679419279,-0.011678538285195827,0.003573670983314514,,,,,,,,,,,,,,,,,,,,,,,,,,,,,,,,,,,,,,,,,,,,,,,,,,,,,,,,,,,,,,,,,,,,,,,,
10,130,32,44,54,60652,52683,1,16,True,1750682783,86853,1750682783.263414,,,,,,,,,,,,,,,,,,,,,,,,,,,37.5,,,,,,,,,,,,,,,,,,True,False,False,False,False,False,False,False,False,False,False,-0.7712754607200623,0.307090699672699,-9.775479316711426,-0.0021481846924871206,-0.006094194948673248,0.0014256375143304467,,,,,,,,,,,,,,,,,,,,,,,,,,,,,,,,,,,,,,,,,,,,,,,,,,,,,,,,,,,,,,,,,,,,,,,,
10,130,32,44,54,44078,36109,1,16,True,1750682783,96832,1750682783.263495,,,,,,,,,,,,,,,,,,,,,,,,,,,37.5,,,,,,,,,,,,,,,,,,True,False,False,False,False,False,False,False,False,False,False,-0.7685840725898743,0.3304239809513092,-9.766688346862793,-0.008842147886753082,0.001286666956730187,-0.0006420277641154826,,,,,,,,,,,,,,,,,,,,,,,,,,,,,,,,,,,,,,,,,,,,,,,,,,,,,,,,,,,,,,,,,,,,,,,,
10,130,32,44,54,12201,4232,1,16,True,1750682783,106842,1750682783.263609,,,,,,,,,,,,,,,,,,,,,,,,,,,37.70000076293945,,,,,,,,,,,,,,,,,,True,False,False,False,False,False,False,False,False,False,False,-0.761979877948761,0.33889737725257874,-9.748123168945312,-0.00901076290756464,0.0033914754167199135,0.0001360273890895769,,,,,,,,,,,,,,,,,,,,,,,,,,,,,,,,,,,,,,,,,,,,,,,,,,,,,,,,,,,,,,,,,,,,,,,,
10,130,32,44,54,54458,46489,1,16,True,1750682783,116821,1750682783.263689,,,,,,,,,,,,,,,,,,,,,,,,,,,37.70000076293945,,,,,,,,,,,,,,,,,,True,False,False,False,False,False,False,False,False,False,False,-0.7678531408309937,0.34260621666908264,-9.754129409790039,-0.007259921170771122,-0.0034536845050752163,0.005455976817756891,,,,,,,,,,,,,,,,,,,,,,,,,,,,,,,,,,,,,,,,,,,,,,,,,,,,,,,,,,,,,,,,,,,,,,,,
10,130,32,44,54,51714,43745,1,16,True,1750682783,126831,1750682783.314845,,,,,,,,,,,,,,,,,,,,,,,,,,,37.5,,,,,,,,,,,,,,,,,,True,False,False,False,False,False,False,False,False,False,False,-0.7789663672447205,0.32847464084625244,-9.774550437927246,-0.006939006969332695,-0.00663132406771183,0.006653119809925556,,,,,,,,,,,,,,,,,,,,,,,,,,,,,,,,,,,,,,,,,,,,,,,,,,,,,,,,,,,,,,,,,,,,,,,,
10,130,32,44,54,58788,50819,1,16,True,1750682783,136810,1750682783.314957,,,,,,,,,,,,,,,,,,,,,,,,,,,37.5,,,,,,,,,,,,,,,,,,True,False,False,False,False,False,False,False,False,False,False,-0.7662452459335327,0.3155510425567627,-9.782303810119629,-0.006222747731953859,-0.0032980565447360277,0.0022788115311414003,,,,,,,,,,,,,,,,,,,,,,,,,,,,,,,,,,,,,,,,,,,,,,,,,,,,,,,,,,,,,,,,,,,,,,,,
10,210,32,108,118,53086,45261,2,36,True,1750682783,136810,1750682783.315055,,300293,2,-2.0044422149658203,-4.497318744659424,193.596923828125,-0.11758648604154587,0.04102355241775513,-0.012710817158222198,0.9921334981918335,-0.9689809679985046,0.23228010535240173,0.08439092338085175,-0.23436588048934937,-0.9720237255096436,-0.015574026852846146,0.07841244339942932,-0.03486928716301918,0.9963110089302063,-0.4436131715774536,0.0,0.1735277771949768,100.0,,,,,,,,,,,,,,,,,,,,,,,,,,,,,,,,,,,,,,,,,,,,,,,,,,,,,,,,,,,,,,,,,,,,,,,,,,,,,,,,,,,,,,,,,,,,,,,,,,,,,,,,,,,,,,
10,220,32,208,218,55587,47872,2,36,True,1750682783,136810,1750682783.315229,,300293,2,-2.0044422149658203,-4.497318744659424,193.596923828125,-0.11758648604154587,0.04102355241775513,-0.012710817158222198,0.9921334981918335,-0.9689809679985046,0.23228010535240173,0.08439092338085175,-0.23436588048934937,-0.9720237255096436,-0.015574026852846146,0.07841244339942932,-0.03486928716301918,0.9963110089302063,-0.4436131715774536,0.0,0.1735277771949768,100.0,1.7334680557250977,True,0.0,29.9375,0.05069999769330025,0.0,23.77671300020838,90.412407,0.0,0.0,0.05000000074505806,0.0,0.0,0.0,0.0,0.0,0.0,0.0,-0.21516713500022888,-0.21937410533428192,0.18227146565914154,,,,,,,,,,,,,,,,,,,,,,,,,,,,,,,,,,,,,,,,,,,,,,,,,,,,,,,,,,,,,,,,,,,,,,,,,,,,,,,,,,,,,,,,,
10,130,32,44,54,34275,26306,1,16,True,1750682783,146820,1750682783.37754,,,,,,,,,,,,,,,,,,,,,,,,,,,37.599998474121094,,,,,,,,,,,,,,,,,,True,False,False,False,False,False,False,False,False,False,False,-0.7754436731338501,0.3324248790740967,-9.745565414428711,-0.007575837895274162,0.004914557095617056,-0.0005446482100524008,,,,,,,,,,,,,,,,,,,,,,,,,,,,,,,,,,,,,,,,,,,,,,,,,,,,,,,,,,,,,,,,,,,,,,,,
10,130,32,44,54,61952,53983,1,16,True,1750682783,156799,1750682783.377709,,,,,,,,,,,,,,,,,,,,,,,,,,,37.599998474121094,,,,,,,,,,,,,,,,,,True,False,False,False,False,False,False,False,False,False,False,-0.7523740530014038,0.3364470899105072,-9.731400489807129,-0.00150498456787318,0.002222048817202449,-0.0007039086776785553,,,,,,,,,,,,,,,,,,,,,,,,,,,,,,,,,,,,,,,,,,,,,,,,,,,,,,,,,,,,,,,,,,,,,,,,
10,130,32,44,54,52303,44334,1,16,True,1750682783,166809,1750682783.37779,,,,,,,,,,,,,,,,,,,,,,,,,,,37.400001525878906,,,,,,,,,,,,,,,,,,True,False,False,False,False,False,False,False,False,False,False,-0.7583683133125305,0.34043195843696594,-9.745753288269043,0.004575090017169714,-0.006458951625972986,0.0013582995161414146,,,,,,,,,,,,,,,,,,,,,,,,,,,,,,,,,,,,,,,,,,,,,,,,,,,,,,,,,,,,,,,,,,,,,,,,
10,130,32,44,54,8251,282,1,16,True,1750682783,176788,1750682783.377863,,,,,,,,,,,,,,,,,,,,,,,,,,,37.5,,,,,,,,,,,,,,,,,,True,False,False,False,False,False,False,False,False,False,False,-0.773901641368866,0.32387351989746094,-9.77901840209961,0.004849996883422136,-0.008678631857037544,0.0029025983531028032,,,,,,,,,,,,,,,,,,,,,,,,,,,,,,,,,,,,,,,,,,,,,,,,,,,,,,,,,,,,,,,,,,,,,,,,
10,130,32,44,54,45049,37080,1,16,True,1750682783,186798,1750682783.377934,,,,,,,,,,,,,,,,,,,,,,,,,,,37.400001525878906,,,,,,,,,,,,,,,,,,True,False,False,False,False,False,False,False,False,False,False,-0.7741301655769348,0.3179563283920288,-9.782325744628906,0.002402563812211156,-0.0016598525689914823,-0.0005285791121423244,,,,,,,,,,,,,,,,,,,,,,,,,,,,,,,,,,,,,,,,,,,,,,,,,,,,,,,,,,,,,,,,,,,,,,,,
10,130,32,44,54,40647,32678,1,16,True,1750682783,196777,1750682783.378003,,,,,,,,,,,,,,,,,,,,,,,,,,,37.5,,,,,,,,,,,,,,,,,,True,False,False,False,False,False,False,False,False,False,False,-0.7680506110191345,0.32690343260765076,-9.76661491394043,-0.002074213931336999,0.00665490236133337,-0.0026729460805654526,,,,,,,,,,,,,,,,,,,,,,,,,,,,,,,,,,,,,,,,,,,,,,,,,,,,,,,,,,,,,,,,,,,,,,,,
10,130,32,44,54,26747,18778,1,16,True,1750682783,206787,1750682783.378069,,,,,,,,,,,,,,,,,,,,,,,,,,,37.599998474121094,,,,,,,,,,,,,,,,,,True,False,False,False,False,False,False,False,False,False,False,-0.7716264724731445,0.3410894274711609,-9.737390518188477,-0.0036739041097462177,0.0038629297632724047,0.0006686077103950083,,,,,,,,,,,,,,,,,,,,,,,,,,,,,,,,,,,,,,,,,,,,,,,,,,,,,,,,,,,,,,,,,,,,,,,,
10,130,32,44,54,9449,1480,1,16,True,1750682783,216766,1750682783.378136,,,,,,,,,,,,,,,,,,,,,,,,,,,37.70000076293945,,,,,,,,,,,,,,,,,,True,False,False,False,False,False,False,False,False,False,False,-0.7553115487098694,0.34383872151374817,-9.75282096862793,-0.0002961167483590543,-0.002507745288312435,0.0036745741963386536,,,,,,,,,,,,,,,,,,,,,,,,,,,,,,,,,,,,,,,,,,,,,,,,,,,,,,,,,,,,,,,,,,,,,,,,
10,130,32,44,54,4949,62516,1,16,True,1750682783,226775,1750682783.378203,,,,,,,,,,,,,,,,,,,,,,,,,,,37.70000076293945,,,,,,,,,,,,,,,,,,True,False,False,False,False,False,False,False,False,False,False,-0.7639096975326538,0.3234630227088928,-9.770790100097656,2.618817234179005e-05,-0.00334435747936368,0.004876238293945789,,,,,,,,,,,,,,,,,,,,,,,,,,,,,,,,,,,,,,,,,,,,,,,,,,,,,,,,,,,,,,,,,,,,,,,,
10,130,32,44,54,54135,46166,1,16,True,1750682783,236784,1750682783.37827,,,,,,,,,,,,,,,,,,,,,,,,,,,37.5,,,,,,,,,,,,,,,,,,True,False,False,False,False,False,False,False,False,False,False,-0.758465051651001,0.3138509690761566,-9.772757530212402,-0.0038023698143661022,0.002490569371730089,0.0009227812988683581,,,,,,,,,,,,,,,,,,,,,,,,,,,,,,,,,,,,,,,,,,,,,,,,,,,,,,,,,,,,,,,,,,,,,,,,
10,210,32,108,118,8999,1174,2,36,True,1750682783,236784,1750682783.420015,,300293,2,-1.989599585533142,-4.493010997772217,193.5952606201172,-0.11757836490869522,0.040970850735902786,-0.012587369419634342,0.9921382069587708,-0.9689934253692627,0.2322765588760376,0.08425749838352203,-0.2343394160270691,-0.9720337986946106,-0.015342249535024166,0.07833749055862427,-0.03461139276623726,0.9963259100914001,-0.4436131715774536,0.0,0.1687549501657486,100.0,,,,,,,,,,,,,,,,,,,,,,,,,,,,,,,,,,,,,,,,,,,,,,,,,,,,,,,,,,,,,,,,,,,,,,,,,,,,,,,,,,,,,,,,,,,,,,,,,,,,,,,,,,,,,,
10,220,32,208,218,34583,26868,2,36,True,1750682783,236784,1750682783.420231,,300293,2,-1.989599585533142,-4.493010997772217,193.5952606201172,-0.11757836490869522,0.040970850735902786,-0.012587369419634342,0.9921382069587708,-0.9689934253692627,0.2322765588760376,0.08425749838352203,-0.2343394160270691,-0.9720337986946106,-0.015342249535024166,0.07833749055862427,-0.03461139276623726,0.9963259100914001,-0.4436131715774536,0.0,0.1687549501657486,100.0,1.7343326807022095,True,0.0,29.9375,0.05069999769330025,0.0,23.77671300020838,90.412407,0.0,0.0,0.05000000074505806,0.0,0.0,0.0,0.0,0.0,0.0,0.0,0.053709521889686584,0.04062296822667122,0.09252075105905533,,,,,,,,,,,,,,,,,,,,,,,,,,,,,,,,,,,,,,,,,,,,,,,,,,,,,,,,,,,,,,,,,,,,,,,,,,,,,,,,,,,,,,,,,
10,130,32,44,54,54870,46901,1,16,True,1750682783,246764,1750682783.420348,,,,,,,,,,,,,,,,,,,,,,,,,,,37.400001525878906,,,,,,,,,,,,,,,,,,True,False,False,False,False,False,False,False,False,False,False,-0.7611075043678284,0.3190326392650604,-9.753336906433105,-0.0046244412660598755,0.006612084805965424,-0.002423880621790886,,,,,,,,,,,,,,,,,,,,,,,,,,,,,,,,,,,,,,,,,,,,,,,,,,,,,,,,,,,,,,,,,,,,,,,,
10,130,32,44,54,27764,19795,1,16,True,1750682783,256773,1750682783.420424,,,,,,,,,,,,,,,,,,,,,,,,,,,37.5,,,,,,,,,,,,,,,,,,True,False,False,False,False,False,False,False,False,False,False,-0.7682413458824158,0.33608826994895935,-9.7454195022583,-0.0015915152616798878,0.0014142931904643774,-0.0029400778003036976,,,,,,,,,,,,,,,,,,,,,,,,,,,,,,,,,,,,,,,,,,,,,,,,,,,,,,,,,,,,,,,,,,,,,,,,
10,130,32,44,54,53556,45587,1,16,True,1750682783,266753,1750682783.420495,,,,,,,,,,,,,,,,,,,,,,,,,,,37.5,,,,,,,,,,,,,,,,,,True,False,False,False,False,False,False,False,False,False,False,-0.7734678983688354,0.33897295594215393,-9.755340576171875,0.003952364902943373,-0.006777523085474968,0.0003258282085880637,,,,,,,,,,,,,,,,,,,,,,,,,,,,,,,,,,,,,,,,,,,,,,,,,,,,,,,,,,,,,,,,,,,,,,,,
10,130,32,44,54,45352,37383,1,16,True,1750682783,276762,1750682783.483263,,,,,,,,,,,,,,,,,,,,,,,,,,,37.5,,,,,,,,,,,,,,,,,,True,False,False,False,False,False,False,False,False,False,False,-0.7580121159553528,0.32723021507263184,-9.773454666137695,0.0015040667494758964,-0.008768667466938496,-0.001232281792908907,,,,,,,,,,,,,,,,,,,,,,,,,,,,,,,,,,,,,,,,,,,,,,,,,,,,,,,,,,,,,,,,,,,,,,,,
10,130,32,44,54,50823,42854,1,16,True,1750682783,286742,1750682783.483377,,,,,,,,,,,,,,,,,,,,,,,,,,,37.5,,,,,,,,,,,,,,,,,,True,False,False,False,False,False,False,False,False,False,False,-0.7803898453712463,0.32399243116378784,-9.777226448059082,-0.002204758580774069,0.0009622591896913946,-0.003286515362560749,,,,,,,,,,,,,,,,,,,,,,,,,,,,,,,,,,,,,,,,,,,,,,,,,,,,,,,,,,,,,,,,,,,,,,,,
10,130,32,44,54,43626,35657,1,16,True,1750682783,296751,1750682783.483465,,,,,,,,,,,,,,,,,,,,,,,,,,,37.5,,,,,,,,,,,,,,,,,,True,False,False,False,False,False,False,False,False,False,False,-0.7761731147766113,0.3384872376918793,-9.750890731811523,-0.004698289558291435,0.004541715607047081,-0.007756288629025221,,,,,,,,,,,,,,,,,,,,,,,,,,,,,,,,,,,,,,,,,,,,,,,,,,,,,,,,,,,,,,,,,,,,,,,,
10,130,32,44,54,4153,61720,1,16,True,1750682783,306731,1750682783.48413,,,,,,,,,,,,,,,,,,,,,,,,,,,37.70000076293945,,,,,,,,,,,,,,,,,,True,False,False,False,False,False,False,False,False,False,False,-0.7616069316864014,0.35561850666999817,-9.736186027526855,-0.0014672948746010661,0.0005886531434953213,-0.003371449187397957,,,,,,,,,,,,,,,,,,,,,,,,,,,,,,,,,,,,,,,,,,,,,,,,,,,,,,,,,,,,,,,,,,,,,,,,
10,130,32,44,54,38126,30157,1,16,True,1750682783,316740,1750682783.484241,,,,,,,,,,,,,,,,,,,,,,,,,,,37.70000076293945,,,,,,,,,,,,,,,,,,True,False,False,False,False,False,False,False,False,False,False,-0.7605436444282532,0.34679046273231506,-9.733550071716309,0.004151539411395788,-0.005799833685159683,0.0027342087123543024,,,,,,,,,,,,,,,,,,,,,,,,,,,,,,,,,,,,,,,,,,,,,,,,,,,,,,,,,,,,,,,,,,,,,,,,
10,130,32,44,54,8769,800,1,16,True,1750682783,326720,1750682783.48432,,,,,,,,,,,,,,,,,,,,,,,,,,,37.5,,,,,,,,,,,,,,,,,,True,False,False,False,False,False,False,False,False,False,False,-0.7669045925140381,0.3167823255062103,-9.770691871643066,0.0005460106185637414,-0.006348785944283009,0.00401156535372138,,,,,,,,,,,,,,,,,,,,,,,,,,,,,,,,,,,,,,,,,,,,,,,,,,,,,,,,,,,,,,,,,,,,,,,,
10,130,32,44,54,36133,28164,1,16,True,1750682783,336730,1750682783.484392,,,,,,,,,,,,,,,,,,,,,,,,,,,37.400001525878906,,,,,,,,,,,,,,,,,,True,False,False,False,False,False,False,False,False,False,False,-0.7715139389038086,0.32084837555885315,-9.78732967376709,-0.004213758744299412,0.0013071459252387285,0.0008329569827765226,,,,,,,,,,,,,,,,,,,,,,,,,,,,,,,,,,,,,,,,,,,,,,,,,,,,,,,,,,,,,,,,,,,,,,,,
10,210,32,108,118,11582,3757,2,36,True,1750682783,336730,1750682783.484485,,300293,2,-1.9754552841186523,-4.493865013122559,193.58026123046875,-0.1174534261226654,0.0409620963037014,-0.012469382025301456,0.9921548962593079,-0.9690536260604858,0.23204244673252106,0.08421063423156738,-0.23408553004264832,-0.9720984101295471,-0.015120838768780231,0.07835234701633453,-0.034365393221378326,0.9963332414627075,-0.4436131715774536,0.0,0.1645556092262268,100.0,,,,,,,,,,,,,,,,,,,,,,,,,,,,,,,,,,,,,,,,,,,,,,,,,,,,,,,,,,,,,,,,,,,,,,,,,,,,,,,,,,,,,,,,,,,,,,,,,,,,,,,,,,,,,,
10,220,32,208,218,1050,58871,2,36,True,1750682783,336730,1750682783.536972,,300293,2,-1.9754552841186523,-4.493865013122559,193.58026123046875,-0.1174534261226654,0.0409620963037014,-0.012469382025301456,0.9921548962593079,-0.9690536260604858,0.23204244673252106,0.08421063423156738,-0.23408553004264832,-0.9720984101295471,-0.015120838768780231,0.07835234701633453,-0.034365393221378326,0.9963332414627075,-0.4436131715774536,0.0,0.1645556092262268,100.0,1.7351964712142944,True,0.0,29.9375,0.05069999769330025,0.0,23.77671300020838,90.412407,0.0,0.0,0.05000000074505806,0.0,0.0,0.0,0.0,0.0,0.0,0.0,0.05681607499718666,-0.0793476551771164,0.06517716497182846,,,,,,,,,,,,,,,,,,,,,,,,,,,,,,,,,,,,,,,,,,,,,,,,,,,,,,,,,,,,,,,,,,,,,,,,,,,,,,,,,,,,,,,,,
10,130,32,44,54,40180,32211,1,16,True,1750682783,346709,1750682783.53714,,,,,,,,,,,,,,,,,,,,,,,,,,,37.5,,,,,,,,,,,,,,,,,,True,False,False,False,False,False,False,False,False,False,False,-0.7683287262916565,0.33443328738212585,-9.769853591918945,-0.0041898321360349655,0.008001104928553104,7.344692858168855e-05,,,,,,,,,,,,,,,,,,,,,,,,,,,,,,,,,,,,,,,,,,,,,,,,,,,,,,,,,,,,,,,,,,,,,,,,
10,130,32,44,54,7558,65125,1,16,True,1750682783,356719,1750682783.537225,,,,,,,,,,,,,,,,,,,,,,,,,,,37.5,,,,,,,,,,,,,,,,,,True,False,False,False,False,False,False,False,False,False,False,-0.7645003795623779,0.33952534198760986,-9.736202239990234,0.0008505051373504102,0.0033153723925352097,-7.106523298716638e-06,,,,,,,,,,,,,,,,,,,,,,,,,,,,,,,,,,,,,,,,,,,,,,,,,,,,,,,,,,,,,,,,,,,,,,,,
10,130,32,44,54,54186,46217,1,16,True,1750682783,366729,1750682783.537299,,,,,,,,,,,,,,,,,,,,,,,,,,,37.70000076293945,,,,,,,,,,,,,,,,,,True,False,False,False,False,False,False,False,False,False,False,-0.769940972328186,0.3441082537174225,-9.734312057495117,0.0020713668782263994,-0.005021154414862394,0.0033330200240015984,,,,,,,,,,,,,,,,,,,,,,,,,,,,,,,,,,,,,,,,,,,,,,,,,,,,,,,,,,,,,,,,,,,,,,,,
10,130,32,44,54,26052,18083,1,16,True,1750682783,376708,1750682783.53737,,,,,,,,,,,,,,,,,,,,,,,,,,,37.5,,,,,,,,,,,,,,,,,,True,False,False,False,False,False,False,False,False,False,False,-0.7646014094352722,0.321341335773468,-9.766809463500977,0.0012970829848200083,-0.007644152734428644,0.0042706867679953575,,,,,,,,,,,,,,,,,,,,,,,,,,,,,,,,,,,,,,,,,,,,,,,,,,,,,,,,,,,,,,,,,,,,,,,,
10,130,32,44,54,32837,24868,1,16,True,1750682783,386718,1750682783.537437,,,,,,,,,,,,,,,,,,,,,,,,,,,37.400001525878906,,,,,,,,,,,,,,,,,,True,False,False,False,False,False,False,False,False,False,False,-0.782809317111969,0.30806124210357666,-9.783146858215332,-0.0016451552510261536,0.001345889177173376,-0.0025959471240639687,,,,,,,,,,,,,,,,,,,,,,,,,,,,,,,,,,,,,,,,,,,,,,,,,,,,,,,,,,,,,,,,,,,,,,,,
10,130,32,44,54,63565,55596,1,16,True,1750682783,396697,1750682783.600231,,,,,,,,,,,,,,,,,,,,,,,,,,,37.5,,,,,,,,,,,,,,,,,,True,False,False,False,False,False,False,False,False,False,False,-0.7630648016929626,0.3413631021976471,-9.753535270690918,0.002402398968115449,0.0038784188218414783,-0.005414991639554501,,,,,,,,,,,,,,,,,,,,,,,,,,,,,,,,,,,,,,,,,,,,,,,,,,,,,,,,,,,,,,,,,,,,,,,,
10,130,32,44,54,23380,15411,1,16,True,1750682783,406707,1750682783.600342,,,,,,,,,,,,,,,,,,,,,,,,,,,37.5,,,,,,,,,,,,,,,,,,True,False,False,False,False,False,False,False,False,False,False,-0.7594023942947388,0.35182473063468933,-9.728002548217773,0.0050805495120584965,-1.096027517633047e-05,-0.0017199503490701318,,,,,,,,,,,,,,,,,,,,,,,,,,,,,,,,,,,,,,,,,,,,,,,,,,,,,,,,,,,,,,,,,,,,,,,,
10,130,32,44,54,1986,59553,1,16,True,1750682783,416687,1750682783.600421,,,,,,,,,,,,,,,,,,,,,,,,,,,37.5,,,,,,,,,,,,,,,,,,True,False,False,False,False,False,False,False,False,False,False,-0.7654026746749878,0.3393227756023407,-9.733855247497559,0.0007072276202961802,-0.007332088891416788,0.00375249981880188,,,,,,,,,,,,,,,,,,,,,,,,,,,,,,,,,,,,,,,,,,,,,,,,,,,,,,,,,,,,,,,,,,,,,,,,
10,130,32,44,54,45714,37745,1,16,True,1750682783,426696,1750682783.600492,,,,,,,,,,,,,,,,,,,,,,,,,,,37.5,,,,,,,,,,,,,,,,,,True,False,False,False,False,False,False,False,False,False,False,-0.7704876065254211,0.33070892095565796,-9.779528617858887,-0.004382904153317213,-0.007707457989454269,0.004510090686380863,,,,,,,,,,,,,,,,,,,,,,,,,,,,,,,,,,,,,,,,,,,,,,,,,,,,,,,,,,,,,,,,,,,,,,,,
10,130,32,44,54,730,58297,1,16,True,1750682783,436676,1750682783.600574,,,,,,,,,,,,,,,,,,,,,,,,,,,37.5,,,,,,,,,,,,,,,,,,True,False,False,False,False,False,False,False,False,False,False,-0.7686475515365601,0.3221558928489685,-9.78911018371582,-0.006701442413032055,0.0030241282656788826,0.0014308526879176497,,,,,,,,,,,,,,,,,,,,,,,,,,,,,,,,,,,,,,,,,,,,,,,,,,,,,,,,,,,,,,,,,,,,,,,,
10,210,32,108,118,26678,18853,2,36,True,1750682783,436676,1750682783.60073,,300293,2,-1.960409164428711,-4.492847442626953,193.57701110839844,-0.11743084341287613,0.04093751683831215,-0.012341327033936977,0.9921602010726929,-0.9690682291984558,0.23200997710227966,0.0841316506266594,-0.2340308576822281,-0.9721153974533081,-0.014874491840600967,0.07833464443683624,-0.03410379961133003,0.9963436126708984,-0.4436131715774536,0.0,0.16093739867210388,100.0,,,,,,,,,,,,,,,,,,,,,,,,,,,,,,,,,,,,,,,,,,,,,,,,,,,,,,,,,,,,,,,,,,,,,,,,,,,,,,,,,,,,,,,,,,,,,,,,,,,,,,,,,,,,,,
10,220,32,208,218,54781,47066,2,36,True,1750682783,436676,1750682783.642711,,300293,2,-1.960409164428711,-4.492847442626953,193.57701110839844,-0.11743084341287613,0.04093751683831215,-0.012341327033936977,0.9921602010726929,-0.9690682291984558,0.23200997710227966,0.0841316506266594,-0.2340308576822281,-0.9721153974533081,-0.014874491840600967,0.07833464443683624,-0.03410379961133003,0.9963436126708984,-0.4436131715774536,0.0,0.16093739867210388,100.0,1.7360597848892212,True,0.0,29.9375,0.05069999769330025,0.0,23.77671300020838,90.412407,0.0,0.0,0.05000000074505806,0.0,0.0,0.0,0.0,0.0,0.0,0.0,-0.15565378963947296,-0.06908159703016281,0.09658811241388321,,,,,,,,,,,,,,,,,,,,,,,,,,,,,,,,,,,,,,,,,,,,,,,,,,,,,,,,,,,,,,,,,,,,,,,,,,,,,,,,,,,,,,,,,
10,130,32,44,54,24047,16078,1,16,True,1750682783,446685,1750682783.643451,,,,,,,,,,,,,,,,,,,,,,,,,,,37.5,,,,,,,,,,,,,,,,,,True,False,False,False,False,False,False,False,False,False,False,-0.7637727856636047,0.3437536358833313,-9.765121459960938,-0.004358453676104546,0.007007888052612543,-0.0007024838705547154,,,,,,,,,,,,,,,,,,,,,,,,,,,,,,,,,,,,,,,,,,,,,,,,,,,,,,,,,,,,,,,,,,,,,,,,
10,130,32,44,54,31083,23114,1,16,True,1750682783,456665,1750682783.64355,,,,,,,,,,,,,,,,,,,,,,,,,,,37.70000076293945,,,,,,,,,,,,,,,,,,True,False,False,False,False,False,False,False,False,False,False,-0.7517929077148438,0.33902379870414734,-9.728227615356445,-0.002669999608770013,0.0010040217312052846,0.0006666756235063076,,,,,,,,,,,,,,,,,,,,,,,,,,,,,,,,,,,,,,,,,,,,,,,,,,,,,,,,,,,,,,,,,,,,,,,,
10,130,32,44,54,25083,17114,1,16,True,1750682783,466674,1750682783.643717,,,,,,,,,,,,,,,,,,,,,,,,,,,37.5,,,,,,,,,,,,,,,,,,True,False,False,False,False,False,False,False,False,False,False,-0.7683682441711426,0.3421880602836609,-9.74017333984375,-0.0014483585255220532,-0.005606694146990776,0.004265705589205027,,,,,,,,,,,,,,,,,,,,,,,,,,,,,,,,,,,,,,,,,,,,,,,,,,,,,,,,,,,,,,,,,,,,,,,,
10,130,32,44,54,33623,25654,1,16,True,1750682783,476654,1750682783.643791,,,,,,,,,,,,,,,,,,,,,,,,,,,37.5,,,,,,,,,,,,,,,,,,True,False,False,False,False,False,False,False,False,False,False,-0.7796607613563538,0.3183661997318268,-9.78515625,-0.0032994661014527082,-0.00690422160550952,0.002280117943882942,,,,,,,,,,,,,,,,,,,,,,,,,,,,,,,,,,,,,,,,,,,,,,,,,,,,,,,,,,,,,,,,,,,,,,,,
10,180,32,128,138,19366,11531,1,36,True,1750682783,368742,1750682783.643887,,300293,,,,,,,,,,,,,,,,,,,,,,,,,29.921875,0.05069999769330025,,,,,,,,,,,,,,,,,,,,,,,,,,,,,,,,,,,,,,,,,False,False,False,False,False,False,False,False,False,False,False,False,False,False,False,1500.0,-32.768001556396484,-32.768001556396484,-32.768001556396484,0.0,0.0,0.0,10.0,10.0,10.0,0.3113659918308258,0.19690066576004028,0.08593299984931946,0.0,0.00041666667675599456,0.0,-32.768001556396484,-32.768001556396484,-32.768001556396484,10.0,10.0,10.0,0.01855899952352047,0.0,,,,,,,,,,,,,,,,,,,,,,,,,,
10,190,32,128,138,44264,36439,1,36,True,1750682783,368742,1750682783.685122,,300293,,,,,,,,,,,,,,,,,,,,,,,,,29.921875,0.05069999769330025,,,,,,,,,,,,,,,,,,,,,,,,,,,,,,,,,,,,,,,,,False,False,False,False,False,False,False,False,False,False,False,False,False,False,False,1500.0,-32.768001556396484,-32.768001556396484,-32.768001556396484,0.0,0.0,0.0,10.0,10.0,10.0,0.30399516224861145,0.1897381693124771,0.0785621702671051,0.006674999836832285,0.006674999836832285,0.006674999836832285,-32.768001556396484,-32.768001556396484,-32.768001556396484,10.0,10.0,10.0,0.025929832831025124,0.0,,,,,,,,,,,,,,,,,,,,,,,,,,
10,130,32,44,54,39097,31128,1,16,True,1750682783,486663,1750682783.685301,,,,,,,,,,,,,,,,,,,,,,,,,,,37.400001525878906,,,,,,,,,,,,,,,,,,True,False,False,False,False,False,False,False,False,False,False,-0.766258716583252,0.328154593706131,-9.773552894592285,-0.004561156500130892,-0.000172233150806278,-0.0010626905132085085,,,,,,,,,,,,,,,,,,,,,,,,,,,,,,,,,,,,,,,,,,,,,,,,,,,,,,,,,,,,,,,,,,,,,,,,
10,135,32,28,38,51376,43396,1,16,True,1750682783,495543,1750682783.685377,,,,,,,,,,,,,,,,,,,,,,,,,,,,,,,,,,,,,,,,,,,,,,,,,,,,,,,,,,,,,,False,False,False,False,-0.3714626729488373,0.07835821062326431,0.12680597603321075,,,,,,,,,,,,,,,,,,,,,,,,,,,,,,,,,,,,,,,,,,,,,,,,,,,,,,,,,,,,,,,,,
10,130,32,44,54,35284,27315,1,16,True,1750682783,496643,1750682783.685499,,,,,,,,,,,,,,,,,,,,,,,,,,,37.5,,,,,,,,,,,,,,,,,,True,False,False,False,False,False,False,False,False,False,False,-0.7665245532989502,0.3300548195838928,-9.74526309967041,-0.003507091663777828,0.004734913352876902,-0.002939512487500906,,,,,,,,,,,,,,,,,,,,,,,,,,,,,,,,,,,,,,,,,,,,,,,,,,,,,,,,,,,,,,,,,,,,,,,,
10,130,32,44,54,39448,31479,1,16,True,1750682783,506652,1750682783.685585,,,,,,,,,,,,,,,,,,,,,,,,,,,37.599998474121094,,,,,,,,,,,,,,,,,,True,False,False,False,False,False,False,False,False,False,False,-0.7454272508621216,0.33592358231544495,-9.734663963317871,-0.004347915295511484,-0.00020540306286420673,0.0011739532928913832,,,,,,,,,,,,,,,,,,,,,,,,,,,,,,,,,,,,,,,,,,,,,,,,,,,,,,,,,,,,,,,,,,,,,,,,
10,135,32,28,38,52611,44631,1,16,True,1750682783,507080,1750682783.685703,,,,,,,,,,,,,,,,,,,,,,,,,,,,,,,,,,,,,,,,,,,,,,,,,,,,,,,,,,,,,,False,False,False,False,-0.3719104528427124,0.07808955013751984,0.12402985244989395,,,,,,,,,,,,,,,,,,,,,,,,,,,,,,,,,,,,,,,,,,,,,,,,,,,,,,,,,,,,,,,,,
10,130,32,44,54,26121,18152,1,16,True,1750682783,516661,1750682783.685769,,,,,,,,,,,,,,,,,,,,,,,,,,,37.599998474121094,,,,,,,,,,,,,,,,,,True,False,False,False,False,False,False,False,False,False,False,-0.7550342082977295,0.3235543966293335,-9.757833480834961,-0.004415405914187431,-0.007554097566753626,0.005970488768070936,,,,,,,,,,,,,,,,,,,,,,,,,,,,,,,,,,,,,,,,,,,,,,,,,,,,,,,,,,,,,,,,,,,,,,,,
10,135,32,28,38,32409,24429,1,16,True,1750682783,518646,1750682783.685855,,,,,,,,,,,,,,,,,,,,,,,,,,,,,,,,,,,,,,,,,,,,,,,,,,,,,,,,,,,,,,False,False,False,False,-0.3728955090045929,0.07701492309570312,0.12814925611019135,,,,,,,,,,,,,,,,,,,,,,,,,,,,,,,,,,,,,,,,,,,,,,,,,,,,,,,,,,,,,,,,,
10,130,32,44,54,51813,43844,1,16,True,1750682783,526640,1750682783.685934,,,,,,,,,,,,,,,,,,,,,,,,,,,37.400001525878906,,,,,,,,,,,,,,,,,,True,False,False,False,False,False,False,False,False,False,False,-0.7680336833000183,0.3316335380077362,-9.786481857299805,-0.005003658588975668,-0.006394305732101202,0.005111290607601404,,,,,,,,,,,,,,,,,,,,,,,,,,,,,,,,,,,,,,,,,,,,,,,,,,,,,,,,,,,,,,,,,,,,,,,,
10,135,32,28,38,13897,5917,1,16,True,1750682783,530180,1750682783.727987,,,,,,,,,,,,,,,,,,,,,,,,,,,,,,,,,,,,,,,,,,,,,,,,,,,,,,,,,,,,,,False,False,False,False,-0.37352240085601807,0.07611940056085587,0.12367164343595505,,,,,,,,,,,,,,,,,,,,,,,,,,,,,,,,,,,,,,,,,,,,,,,,,,,,,,,,,,,,,,,,,
10,130,32,44,54,6770,64337,1,16,True,1750682783,536650,1750682783.728092,,,,,,,,,,,,,,,,,,,,,,,,,,,37.5,,,,,,,,,,,,,,,,,,True,False,False,False,False,False,False,False,False,False,False,-0.7738601565361023,0.3234453797340393,-9.780075073242188,-0.005854261107742786,0.003723808331415057,0.00040277617517858744,,,,,,,,,,,,,,,,,,,,,,,,,,,,,,,,,,,,,,,,,,,,,,,,,,,,,,,,,,,,,,,,,,,,,,,,
10,210,32,108,118,6134,63845,2,36,True,1750682783,536650,1750682783.728194,,300293,2,-1.966443419456482,-4.491490840911865,193.65383911132812,-0.11809403449296951,0.04094025865197182,-0.012367536313831806,0.9920809864997864,-0.9687553644180298,0.23330503702163696,0.08415316790342331,-0.23533035814762115,-0.9718016982078552,-0.014869597740471363,0.07831104099750519,-0.03420879691839218,0.9963418841362,-0.4436131715774536,0.5069151520729065,0.168474942445755,100.0,,,,,,,,,,,,,,,,,,,,,,,,,,,,,,,,,,,,,,,,,,,,,,,,,,,,,,,,,,,,,,,,,,,,,,,,,,,,,,,,,,,,,,,,,,,,,,,,,,,,,,,,,,,,,,
10,220,32,208,218,38054,30339,2,36,True,1750682783,536650,1750682783.728413,,300293,2,-1.966443419456482,-4.491490840911865,193.65383911132812,-0.11809403449296951,0.04094025865197182,-0.012367536313831806,0.9920809864997864,-0.9687553644180298,0.23330503702163696,0.08415316790342331,-0.23533035814762115,-0.9718016982078552,-0.014869597740471363,0.07831104099750519,-0.03420879691839218,0.9963418841362,-0.4436131715774536,0.5069151520729065,0.168474942445755,100.0,1.736923098564148,True,0.0,29.921875,0.05069999769330025,0.0,23.77671300020838,90.412407,0.0,0.0,0.5069151520729065,0.0,0.0,0.0,0.0,0.0,0.0,0.0,-0.14916834235191345,-0.011428160592913628,0.0843726173043251,,,,,,,,,,,,,,,,,,,,,,,,,,,,,,,,,,,,,,,,,,,,,,,,,,,,,,,,,,,,,,,,,,,,,,,,,,,,,,,,,,,,,,,,,
10,130,32,44,54,1427,58994,1,16,True,1750682783,546629,1750682783.729157,,,,,,,,,,,,,,,,,,,,,,,,,,,37.400001525878906,,,,,,,,,,,,,,,,,,True,False,False,False,False,False,False,False,False,False,False,-0.7625666856765747,0.33018606901168823,-9.759387969970703,-0.0034407346975058317,0.006180441007018089,0.0007590081077069044,,,,,,,,,,,,,,,,,,,,,,,,,,,,,,,,,,,,,,,,,,,,,,,,,,,,,,,,,,,,,,,,,,,,,,,,
10,130,32,44,54,53982,46013,1,16,True,1750682783,556639,1750682783.781619,,,,,,,,,,,,,,,,,,,,,,,,,,,37.70000076293945,,,,,,,,,,,,,,,,,,True,False,False,False,False,False,False,False,False,False,False,-0.7592014074325562,0.34253746271133423,-9.730472564697266,-0.003457623068243265,0.0016294876113533974,0.0023842304944992065,,,,,,,,,,,,,,,,,,,,,,,,,,,,,,,,,,,,,,,,,,,,,,,,,,,,,,,,,,,,,,,,,,,,,,,,
10,130,32,44,54,14230,6261,1,16,True,1750682783,566618,1750682783.781774,,,,,,,,,,,,,,,,,,,,,,,,,,,37.5,,,,,,,,,,,,,,,,,,True,False,False,False,False,False,False,False,False,False,False,-0.7648695707321167,0.338865727186203,-9.741641998291016,-0.001544374506920576,-0.00560695631429553,0.006929507479071617,,,,,,,,,,,,,,,,,,,,,,,,,,,,,,,,,,,,,,,,,,,,,,,,,,,,,,,,,,,,,,,,,,,,,,,,
10,130,32,44,54,32328,24359,1,16,True,1750682783,576628,1750682783.781851,,,,,,,,,,,,,,,,,,,,,,,,,,,37.599998474121094,,,,,,,,,,,,,,,,,,True,False,False,False,False,False,False,False,False,False,False,-0.7685847878456116,0.3149816691875458,-9.77886962890625,-0.0014152369694784284,-0.005318139214068651,0.008048202842473984,,,,,,,,,,,,,,,,,,,,,,,,,,,,,,,,,,,,,,,,,,,,,,,,,,,,,,,,,,,,,,,,,,,,,,,,
10,130,32,44,54,51257,43288,1,16,True,1750682783,586607,1750682783.781934,,,,,,,,,,,,,,,,,,,,,,,,,,,37.70000076293945,,,,,,,,,,,,,,,,,,True,False,False,False,False,False,False,False,False,False,False,-0.775628387928009,0.3121660053730011,-9.777753829956055,-0.001819911878556013,-0.00024549243971705437,0.0029873619787395,,,,,,,,,,,,,,,,,,,,,,,,,,,,,,,,,,,,,,,,,,,,,,,,,,,,,,,,,,,,,,,,,,,,,,,,
10,130,32,44,54,26533,18564,1,16,True,1750682783,596617,1750682783.782003,,,,,,,,,,,,,,,,,,,,,,,,,,,37.5,,,,,,,,,,,,,,,,,,True,False,False,False,False,False,False,False,False,False,False,-0.7638334631919861,0.31810253858566284,-9.754014015197754,-0.0035371643025428057,0.0035181469283998013,0.0013563071843236685,,,,,,,,,,,,,,,,,,,,,,,,,,,,,,,,,,,,,,,,,,,,,,,,,,,,,,,,,,,,,,,,,,,,,,,,
10,130,32,44,54,31949,23980,1,16,True,1750682783,606627,1750682783.782072,,,,,,,,,,,,,,,,,,,,,,,,,,,37.5,,,,,,,,,,,,,,,,,,True,False,False,False,False,False,False,False,False,False,False,-0.7587997913360596,0.34006914496421814,-9.754677772521973,-0.007000484503805637,-0.0025477528106421232,0.0025367350317537785,,,,,,,,,,,,,,,,,,,,,,,,,,,,,,,,,,,,,,,,,,,,,,,,,,,,,,,,,,,,,,,,,,,,,,,,
10,130,32,44,54,18825,10856,1,16,True,1750682783,616606,1750682783.782138,,,,,,,,,,,,,,,,,,,,,,,,,,,37.5,,,,,,,,,,,,,,,,,,True,False,False,False,False,False,False,False,False,False,False,-0.7641517519950867,0.32553762197494507,-9.769954681396484,-0.006538871210068464,-0.005982236936688423,0.00493732700124383,,,,,,,,,,,,,,,,,,,,,,,,,,,,,,,,,,,,,,,,,,,,,,,,,,,,,,,,,,,,,,,,,,,,,,,,
10,130,32,44,54,64548,56579,1,16,True,1750682783,626616,1750682783.782203,,,,,,,,,,,,,,,,,,,,,,,,,,,37.5,,,,,,,,,,,,,,,,,,True,False,False,False,False,False,False,False,False,False,False,-0.7759049534797668,0.3233027160167694,-9.772039413452148,-0.0068565597757697105,-0.0031105184461921453,0.0018478598212823272,,,,,,,,,,,,,,,,,,,,,,,,,,,,,,,,,,,,,,,,,,,,,,,,,,,,,,,,,,,,,,,,,,,,,,,,
10,130,32,44,54,63075,55106,1,16,True,1750682783,636595,1750682783.782268,,,,,,,,,,,,,,,,,,,,,,,,,,,37.599998474121094,,,,,,,,,,,,,,,,,,True,False,False,False,False,False,False,False,False,False,False,-0.7605793476104736,0.32308393716812134,-9.750564575195312,-0.007588628213852644,0.0014960112748667598,-0.00012149506801506504,,,,,,,,,,,,,,,,,,,,,,,,,,,,,,,,,,,,,,,,,,,,,,,,,,,,,,,,,,,,,,,,,,,,,,,,
10,210,32,108,118,57637,49812,2,36,True,1750682783,636595,1750682783.823892,,300293,2,-1.9731048345565796,-4.489327907562256,193.66456604003906,-0.11818496882915497,0.04092956334352493,-0.012423628009855747,0.9920699000358582,-0.96871417760849,0.23347851634025574,0.08414655178785324,-0.23551249504089355,-0.9717559218406677,-0.014975698664784431,0.07827340811491013,-0.03432473540306091,0.9963408708572388,-0.4436131715774536,0.5069151520729065,0.16549032926559448,100.0,,,,,,,,,,,,,,,,,,,,,,,,,,,,,,,,,,,,,,,,,,,,,,,,,,,,,,,,,,,,,,,,,,,,,,,,,,,,,,,,,,,,,,,,,,,,,,,,,,,,,,,,,,,,,,
